{
  "type": {
    "display": "person",
    "object": "person"
  },
  "row": {
    "height": 80,
    "iconwidth": 60,
    "iconheight": 60,
    "picindent": 10,
    "indent": 25,
    "cattextcolor": 1,
    "catheight": 30,
    "catfontsize": 20,
    "catcolor": {
      "default": [
        0.1686,
        0.56078,
        0.3215,
        0.86
      ]
    },
    "linecolor": [
      0.7843137254902
    ],
    "textcolor": 0,
    "textfontsize": 16,
    "titlecolor": 0.5,
    "titlefontsize": 14,
    "subtextcolor": 0.5,
    "subtextfontsize": 12,
    "over": [
      1,
      0.5,
      0,
      0.2
    ]
  },
  "pic": "person.png",
  "originaliconwidth": 302,
  "originaliconheight": 302,
  "iconwidth": 60,
  "backtext": "<",
  "navigation": {
    "composer": {
      "lua": "peopledetails",
      "effect": "slideLeft",
      "id": "x",
      "effectback": "slideRight",
      "time": 250
    }
  },
  "sceneinfo": {
    "cornerradius": 3,
    "textcoloraddress": {
      "a": 1,
      "b": 0.5098,
      "g": 0.5098,
      "r": 0.5098
    },
    "groupbackground": {
      "a": 1,
      "b": 0.8627,
      "g": 0.8627,
      "r": 0.8627
    },
    "tableheight": 180,
    "groupheight": 100,
    "map": {
      "type": "standard",
      "longitudespan": 0.1,
      "latitudespan": 0.1
    },
    "textcolor": {
      "a": 1,
      "b": 0.0039,
      "g": 0.0039,
      "r": 0.0039
    },
    "animation": true,
    "textbottomedge": 5,
    "animationtime": 300,
    "row": {
      "desctexty": 40,
      "iconwidth": 40,
      "titletextx": 60,
      "desctextx": 60,
      "iconheight": 40,
      "titletextColor": 0,
      "titletexty": 20,
      "lineColor": [
        0.8627
      ],
      "includedirections": true,
      "titletextfontsize": 16,
      "height": 60,
      "desctextColor": 0.5,
      "desctextfontsize": 12,
      "rowColor": [
        1,
        1,
        1
      ]
    },
    "groupstrokewidth": 0,
    "iconheight": 60,
    "textfontsizeaddress": 14,
    "textfontsize": 18,
    "edge": 10,
    "iconwidth": 60
  },
  "items": {
    "abbeyj": {
      "pic": "abbeyj.jpg",
      "originaliconwidth": 2288,
      "originaliconheight": 1712,
      "state": "IN",
      "name": "Joel W. Abbey",
      "corp": "Liberty Mutual Insurance",
      "launchobjects": {
        "a": {
          "field": "(317) 814-6905",
          "type": "phone"
        },
        "d": {
          "field": "https://www.libertymutual.com",
          "type": "web"
        }
      },
      "zip": "46207",
      "city": "Indianapolis",
      "street": "P.O. Box 7170"
    },
    "angstt": {
      "pic": "",
      "originaliconwidth": 1,
      "originaliconheight": 1,
      "state": "x",
      "name": "x",
      "corp": "x",
      "launchobjects": {
        "a": {
          "field": "x",
          "type": "phone"
        },
        "b": {
          "field": "x.com",
          "type": "email"
        },
        "d": {
          "field": "http://www.x.com/",
          "type": "web"
        }
      },
      "zip": "x",
      "city": "x",
      "street": "x",
      "geo": {
        "latitude": 1,
        "longitude": -1
      }
    },
    "ashbyc": {
      "pic": "",
      "originaliconwidth": 1,
      "originaliconheight": 1,
      "state": "",
      "name": "Candace Ashby",
      "corp": "",
      "launchobjects": {
        "a": {
          "field": "(317) 883-3473",
          "type": "phone"
        },
        "b": {
          "field": "cashby@keyfire.net",
          "type": "email"
        }
      },
      "zip": "",
      "city": "",
      "street": ""
    },
    "barnaclej": {
      "pic": "",
      "originaliconwidth": 1,
      "originaliconheight": 1,
      "state": "IL",
      "name": "John Barnacle",
      "corp": "The Hartford",
      "launchobjects": {
        "a": {
          "field": "(630) 692-8724",
          "type": "phone"
        },
        "c": {
          "field": "(855) 878-9968",
          "type": "fax"
        },
        "d": {
          "field": "https://www.thehartford.com/",
          "type": "web"
        }
      },
      "zip": "60439",
      "city": "Lemont",
      "street": "13530 Arctic Lane"
    },
    "beaglem": {
      "pic": "",
      "originaliconwidth": 1,
      "originaliconheight": 1,
      "state": "KY",
      "name": "Michael Beagle",
      "corp": "DiscoveryPro, Inc.",
      "launchobjects": {
        "a": {
          "field": "(859) 283-0500",
          "type": "phone"
        }
      },
      "zip": "41042",
      "city": "Florence",
      "street": "75 Cavalier Blvd.",
      "street2": "Suite 303"
    },
    "bernalr": {
      "pic": "",
      "originaliconwidth": 1,
      "originaliconheight": 1,
      "state": "FL",
      "name": "Roland Bernal",
      "corp": "Groelle & Salmon, P.A.",
      "launchobjects": {
        "a": {
          "field": "(772) 257-0700",
          "type": "phone"
        },
        "d": {
          "field": "http://www.gspalaw.com/",
          "type": "web"
        }
      },
      "zip": "32966",
      "city": "Vero Beach",
      "street": "1880 82nd Avenue",
      "street2": "Suite 104"
    },
    "biskupskib": {
      "pic": "",
      "originaliconwidth": 1,
      "originaliconheight": 1,
      "state": "IN",
      "name": "Brian Biskupski ",
      "corp": "Indiana Farm Bureau Insurance",
      "launchobjects": {
        "a": {
          "field": "(317) 804-7201, Ext. 2370",
          "type": "phone"
        },
        "d": {
          "field": "https://www.infarmbureau.com/",
          "type": "web"
        }
      },
      "zip": "46074",
      "city": "Westfield",
      "street": "3337 State Route 32 E."
    },
    "blackl": {
      "pic": "",
      "originaliconwidth": 1,
      "originaliconheight": 1,
      "state": "IN",
      "name": "Larry Black",
      "corp": "Nationwide Insurance",
      "launchobjects": {
        "a": {
          "field": "(317) 671-3906",
          "type": "phone"
        },
        "d": {
          "field": "https://www.nationwide.com",
          "type": "web"
        }
      },
      "zip": "46062",
      "city": "Noblesville",
      "street": "6051 Boundary Dr."
    },
    "blockc": {
      "pic": "",
      "originaliconwidth": 1,
      "originaliconheight": 1,
      "state": "IL",
      "name": "Christopher J. Block",
      "corp": "Farmers Insurance",
      "launchobjects": {
        "a": {
          "field": "(847) 863-8079",
          "type": "phone"
        },
        "c": {
          "field": "(855) 522-4079",
          "type": "fax"
        },
        "d": {
          "field": "https://www.farmers.com",
          "type": "web"
        }
      },
      "zip": "60532",
      "city": "Lisle",
      "street": "4225 Naperville Rd.",
      "street2": "Suite 350"
    },
    "browns": {
      "pic": "browns.jpg",
      "originaliconwidth": 426,
      "originaliconheight": 640,
      "state": "TN",
      "name": "Scott Brown",
      "corp": "Frost Brown Todd, LLC",
      "launchobjects": {
        "a": {
          "field": "(615) 251-5581",
          "type": "phone"
        },
        "b": {
          "field": "x.com",
          "type": "email"
        },
        "d": {
          "field": "http://www.frostbrowntodd.com/",
          "type": "web"
        }
      },
      "zip": "37201",
      "city": "Nashville",
      "street": "150 3rd Avenue South",
      "street2": "Suite 1900"
    },
    "burrist": {
      "pic": "burrist.jpg",
      "originaliconwidth": 950,
      "originaliconheight": 1188,
      "state": "IN",
      "name": "Todd M. Burris",
      "corp": "State Auto Insurance Co.",
      "launchobjects": {
        "a": {
          "field": "(317) 452-9615",
          "type": "phone"
        },
        "b": {
          "field": "todd.burris@stateauto.com",
          "type": "email"
        },
        "c": {
          "field": "(614) 719-0182",
          "type": "fax"
        },
        "d": {
          "field": "http://www.stateauto.com/",
          "type": "web"
        }
      },
      "zip": "46278",
      "city": "Indianapolis",
      "street": "P.O. Box 781022",
      "geo": {
        "latitude": 39.8608444,
        "longitude": -86.389553
      }
    },
    "bushj": {
      "pic": "",
      "originaliconwidth": 1,
      "originaliconheight": 1,
      "state": "KY",
      "name": "John M. Bush",
      "corp": "Quintairos, Prieto, Wood & Boyer, P.A.",
      "launchobjects": {
        "a": {
          "field": "(502) 423-6390",
          "type": "phone"
        },
        "b": {
          "field": "jmbush@qpwblaw.com",
          "type": "email"
        },
        "c": {
          "field": "(502) 423-6391",
          "type": "fax"
        },
        "d": {
          "field": "http://www.qpwblaw.com/",
          "type": "web"
        }
      },
      "zip": "40222",
      "city": "Louisville",
      "street": "9300 Shelbyville Road Suite 400"
    },
    "butlerc": {
      "pic": "",
      "originaliconwidth": 1,
      "originaliconheight": 1,
      "state": "FL",
      "name": "Chris Butler",
      "corp": "Eagle Eye Investigative Solutions",
      "launchobjects": {
        "a": {
          "field": "(561) 983-4455",
          "type": "phone"
        },
        "d": {
          "field": "https://www.eeinvestigativesolutions.com/",
          "type": "web"
        }
      },
      "zip": "33409",
      "city": "West Palm Beach",
      "street": "931 Village Blvd.",
      "street2": "Suite 905-395"
    },
    "callahanm": {
      "pic": "",
      "originaliconwidth": 1,
      "originaliconheight": 1,
      "state": "IL",
      "name": "Martin Callahan",
      "corp": "State Farm Insurance Co.",
      "launchobjects": {
        "a": {
          "field": "(253) 459-8907",
          "type": "phone"
        },
        "d": {
          "field": "https://www.statefarm.com",
          "type": "web"
        }
      },
      "zip": "60510",
      "city": "Batavia",
      "street": "1025 Towne Ave."
    },
    "cambrae": {
      "pic": "",
      "originaliconwidth": 1,
      "originaliconheight": 1,
      "state": "",
      "name": "Edward Cambra",
      "corp": "",
      "launchobjects": {
        "a": {
          "field": "(317) 733-3500",
          "type": "phone"
        },
        "b": {
          "field": "ecambra@jcsforensicaccts.com",
          "type": "email"
        }
      },
      "zip": "",
      "city": "",
      "street": ""
    },
    "carra": {
      "pic": "",
      "originaliconwidth": 1,
      "originaliconheight": 1,
      "state": "x",
      "name": "x",
      "corp": "x",
      "launchobjects": {
        "a": {
          "field": "x",
          "type": "phone"
        },
        "b": {
          "field": "x.com",
          "type": "email"
        },
        "d": {
          "field": "http://www.x.com/",
          "type": "web"
        }
      },
      "zip": "x",
      "city": "x",
      "street": "x",
      "geo": {
        "latitude": 1,
        "longitude": -1
      }
    },
    "charltonc": {
      "pic": "",
      "originaliconwidth": 1,
      "originaliconheight": 1,
      "state": "",
      "name": "Christie Charlton",
      "corp": "State Farm",
      "launchobjects": {
        "a": {
          "field": "(253) 439-1346",
          "type": "phone"
        },
        "b": {
          "field": "christie.charlton.gbu1@statefarm.com",
          "type": "email"
        },
        "d": {
          "field": "https://www.statefarm.com/",
          "type": "web"
        }
      },
      "zip": "",
      "city": "",
      "street": ""
    },
    "chrisw": {
      "pic": "chrisw.jpg",
      "originaliconwidth": 170,
      "originaliconheight": 225,
      "state": "",
      "name": "William Chris",
      "corp": "Roderick Linton Belfance LLP",
      "launchobjects": {
        "a": {
          "field": "(330) 434-3000",
          "type": "phone"
        },
        "b": {
          "field": "wchris@rlbllp.com",
          "type": "email"
        },
        "d": {
          "field": "http://www.rlbllp.com",
          "type": "web"
        }
      },
      "zip": "",
      "city": "",
      "street": ""
    },
    "clarkk": {
      "pic": "",
      "originaliconwidth": 1,
      "originaliconheight": 1,
      "state": "MO",
      "name": "Kevin P. Clark",
      "corp": "Boggs, Avellino, Lach & Boggs, LLC",
      "launchobjects": {
        "a": {
          "field": "314) 726-2310",
          "type": "phone"
        },
        "c": {
          "field": "(314) 726-2360",
          "type": "fax"
        },
        "d": {
          "field": "http://www.balblawyers.com/",
          "type": "web"
        }
      },
      "zip": "63132",
      "city": "St. Louis",
      "street": "9326 Olive Blvd.",
      "street2": "Suite 200"
    },
    "comstockd": {
      "pic": "comstockd.jpg",
      "originaliconwidth": 940,
      "originaliconheight": 1135,
      "launchobjects": {
        "a": {
          "field": "(330) 286-3701",
          "type": "phone"
        },
        "b": {
          "field": "dcomstock@bsphlaw.com",
          "type": "email"
        },
        "c": {
          "field": "(330) 286-3745",
          "type": "fax"
        },
        "d": {
          "field": "http://www.bsmph.com/Attorneys/",
          "type": "web"
        }
      },
      "name": "David 'Chip' Comstock, Jr.",
      "corp": "Bonezzi Switzer Polito & Hupp",
      "zip": "44406",
      "state": "OH",
      "city": "Canfield",
      "street": "4137 Boardman-Canfield Rd.",
      "street2": "Suite 101"
    },
    "crainj": {
      "pic": "crainj.jpg",
      "originaliconwidth": 400,
      "originaliconheight": 320,
      "state": "AL",
      "name": "Jeff Crain",
      "corp": "Crain & Associates, Inc.",
      "launchobjects": {
        "a": {
          "field": "(205) 995-8231",
          "type": "phone"
        },
        "b": {
          "field": "jeff@fireonc.com",
          "type": "email"
        },
        "c": {
          "field": "(205) 995-8232",
          "type": "fax"
        },
        "d": {
          "field": "http://www.fireonc.com",
          "type": "web"
        }
      },
      "zip": "35244",
      "city": "Birmingham",
      "street": "151 Business Center Dr."
    },
    "cristl": {
      "pic": "",
      "originaliconwidth": 1,
      "originaliconheight": 1,
      "state": "MO",
      "name": "Lewis R. Crist",
      "corp": "Crist & Associates",
      "launchobjects": {
        "a": {
          "field": "(314) 973-4430",
          "type": "phone"
        }
      },
      "zip": "63040",
      "city": "Wildwood",
      "street": "175 Cherry Hills Meadow Dr."
    },
    "davisj": {
      "pic": "davisj.jpg",
      "originaliconwidth": 858,
      "originaliconheight": 764,
      "launchobjects": {
        "a": {
          "field": "(317) 370-6475",
          "type": "phone"
        },
        "b": {
          "field": "jessica.davis@erieinsurance.com",
          "type": "email"
        },
        "c": {
          "field": "(814) 461-2914",
          "type": "fax"
        },
        "d": {
          "field": "https://www.erieinsurance.com/",
          "type": "web"
        }
      },
      "name": "Jessica Davis ",
      "corp": "Erie Insurance",
      "zip": "46280",
      "state": "IN",
      "city": "Indianapolis",
      "street": "P.O. Box 80129"
    },
    "deans": {
      "pic": "",
      "originaliconwidth": 1,
      "originaliconheight": 1,
      "state": "x",
      "name": "x",
      "corp": "x",
      "launchobjects": {
        "a": {
          "field": "x",
          "type": "phone"
        },
        "b": {
          "field": "x.com",
          "type": "email"
        },
        "d": {
          "field": "http://www.x.com/",
          "type": "web"
        }
      },
      "zip": "x",
      "city": "x",
      "street": "x",
      "geo": {
        "latitude": 1,
        "longitude": -1
      }
    },
    "dwyerk": {
      "pic": "",
      "originaliconwidth": 1,
      "originaliconheight": 1,
      "state": "IL",
      "name": "Kristie Dwyer",
      "corp": "National Insurance Crime Bureau",
      "launchobjects": {
        "a": {
          "field": "(847) 544-7094",
          "type": "phone"
        },
        "c": {
          "field": "(847) 544-7100",
          "type": "fax"
        },
        "d": {
          "field": "https://www.nicb.org/",
          "type": "web"
        }
      },
      "zip": "60018",
      "city": "Des Plaines",
      "street": "1111 E. Touhy Ave.",
      "street2": "Suite 400"
    },
    "ferrandj": {
      "pic": "ferrandj.jpg",
      "originaliconwidth": 300,
      "originaliconheight": 400,
      "launchobjects": {
        "a": {
          "field": "(317) 566-7573",
          "type": "phone"
        },
        "d": {
          "field": "http://fuzionanalytics.com/",
          "type": "web"
        }
      },
      "name": "Jeffrey W. Ferrand",
      "corp": "Fuzion",
      "zip": "46032",
      "state": "IN",
      "city": "Carmel",
      "street": "550 Congressional Blvd",
      "street2": "Suite 200"
    },
    "fickenc": {
      "pic": "fickenc.jpg",
      "originaliconwidth": 106,
      "originaliconheight": 133,
      "state": "MO",
      "name": "Craig E. Ficken",
      "corp": "MDD - Forensic Accountants",
      "launchobjects": {
        "a": {
          "field": "(314) 469-7445",
          "type": "phone"
        },
        "b": {
          "field": "eficken@mdd.com",
          "type": "email"
        },
        "c": {
          "field": "(314) 469-4577",
          "type": "fax"
        },
        "d": {
          "field": "https://mdd.com/",
          "type": "web"
        }
      },
      "zip": "63141",
      "city": "St. Louis",
      "street": "11 The Pines Court, Suite E"
    },
    "fishmans": {
      "pic": "fishmans.jpg",
      "originaliconwidth": 395,
      "originaliconheight": 395,
      "state": "IL",
      "name": "Scott Fishman",
      "corp": "Freeborn & Peters LLP",
      "launchobjects": {
        "a": {
          "field": "(312) 360-6626",
          "type": "phone"
        },
        "b": {
          "field": "sfishman@freeborn.com",
          "type": "email"
        },
        "d": {
          "field": "https://www.freeborn.com",
          "type": "web"
        }
      },
      "zip": "60606",
      "city": "Chicago",
      "street": "311 S. Wacker Dr.",
      "street2": "Suite 3000"
    },
    "funfsinng": {
      "pic": "funfsinng.jpg",
      "originaliconwidth": 140,
      "originaliconheight": 210,
      "state": "KY",
      "name": "Gregory Funfsinn",
      "corp": "Walters Meadows Richardson, PLLC",
      "launchobjects": {
        "a": {
          "field": "(859) 219-9090",
          "type": "phone"
        },
        "b": {
          "field": "greg@wmrdefense.com",
          "type": "email"
        },
        "d": {
          "field": "https://www.wmrdefense.com/",
          "type": "web"
        }
      },
      "zip": "40503",
      "city": "Lexington",
      "street": "771 Corporate Dr.",
      "street2": "Suite 900"
    },
    "gillmans": {
      "pic": "gillmans.jpg",
      "originaliconwidth": 150,
      "originaliconheight": 150,
      "state": "IL",
      "name": "Scott Gillman",
      "corp": "Condon & Cook, LLC",
      "launchobjects": {
        "a": {
          "field": "(312) 266-1313",
          "type": "phone"
        },
        "b": {
          "field": "sgillman@condoncook.com",
          "type": "email"
        },
        "c": {
          "field": "(312) 266-8148",
          "type": "fax"
        },
        "d": {
          "field": "http://www.condoncook.com/",
          "type": "web"
        }
      },
      "zip": "60610",
      "city": "Chicago",
      "street": "745 North Dearborn St."
    },
    "hagemanm": {
      "pic": "",
      "originaliconwidth": 1,
      "originaliconheight": 1,
      "state": "OH",
      "name": "Michael D. Hageman",
      "corp": "Cincinnati Insurance Co",
      "launchobjects": {
        "a": {
          "field": "(513) 603-5959",
          "type": "phone"
        },
        "d": {
          "field": "https://www.cinfin.com/",
          "type": "web"
        }
      },
      "zip": "45250",
      "city": "Cincinnati",
      "street": "P.O. Box 145496"
    },
    "harlowt": {
      "pic": "",
      "originaliconwidth": 1,
      "originaliconheight": 1,
      "state": "FL",
      "name": "T. David Harlow",
      "corp": "PTC/LWG",
      "launchobjects": {
        "a": {
          "field": "(954) 703-0130",
          "type": "phone"
        }
      },
      "zip": "33441",
      "city": "Deerfield Beach",
      "street": "1950 N.E. 7th Street",
      "street2": "Suite 105"
    },
    "heagertyp": {
      "pic": "",
      "originaliconwidth": 1,
      "originaliconheight": 1,
      "state": "",
      "name": "Patty Heagerty",
      "corp": "State Auto Insurance Co.",
      "launchobjects": {
        "a": {
          "field": "(614) 493-6957",
          "type": "phone"
        },
        "b": {
          "field": "patty.heagerty@stateauto.com",
          "type": "email"
        },
        "d": {
          "field": "http://www.stateauto.com/",
          "type": "web"
        }
      },
      "zip": "",
      "city": "",
      "street": ""
    },
    "henryb": {
      "pic": "henryb.jpg",
      "originaliconwidth": 600,
      "originaliconheight": 799,
      "state": "FL",
      "name": "Brian Henry",
      "corp": "Smith, Rolfes & Skavdahl Co., L.P.A.",
      "launchobjects": {
        "a": {
          "field": "(941) 684-0100",
          "type": "phone"
        },
        "b": {
          "field": "bhenry@smithrolfes.com",
          "type": "email"
        },
        "c": {
          "field": "(941) 684-0109",
          "type": "email"
        },
        "d": {
          "field": "http://www.smithrolfes.com/",
          "type": "web"
        }
      },
      "zip": "34236",
      "city": "Sarasota",
      "street": "1605 Main St.",
      "street2": "Suite 1106"
    },
    "hesterc": {
      "pic": "hesterc.jpg",
      "originaliconwidth": 435,
      "originaliconheight": 466,
      "state": "AL",
      "name": "Cathy J. Hester",
      "corp": "CJ Hester, Inc.",
      "launchobjects": {
        "a": {
          "field": "(877) 342-4111",
          "type": "phone"
        },
        "b": {
          "field": "chester@hesterinc.net",
          "type": "email"
        },
        "c": {
          "field": "(877) 342-4116",
          "type": "fax"
        },
        "d": {
          "field": "http://hesterinc.net/",
          "type": "web"
        }
      },
      "zip": "35244",
      "city": "Birmingham",
      "street": "50 Chase Park South",
      "street2": "Suite 100"
    },
    "horinea": {
      "pic": "",
      "originaliconwidth": 1,
      "originaliconheight": 1,
      "state": "IN",
      "name": "Amber Horine",
      "corp": "State Farm Insurance Co.",
      "launchobjects": {
        "a": {
          "field": "(765) 730-2316",
          "type": "phone"
        },
        "d": {
          "field": "https://www.statefarm.com",
          "type": "web"
        }
      },
      "zip": "47396",
      "city": "Yorktown",
      "street": "P.O. Box 123"
    },
    "hydec": {
      "pic": "",
      "originaliconwidth": 1,
      "originaliconheight": 1,
      "state": "x",
      "name": "x",
      "corp": "x",
      "launchobjects": {
        "a": {
          "field": "x",
          "type": "phone"
        },
        "b": {
          "field": "x.com",
          "type": "email"
        },
        "d": {
          "field": "http://www.x.com/",
          "type": "web"
        }
      },
      "zip": "x",
      "city": "x",
      "street": "x",
      "geo": {
        "latitude": 1,
        "longitude": -1
      }
    },
    "jacobsonc": {
      "pic": "jacobsonc.jpg",
      "originaliconwidth": 300,
      "originaliconheight": 350,
      "state": "MO",
      "name": "Carly Jacobson",
      "corp": "RGL Forensics",
      "launchobjects": {
        "a": {
          "field": "(636) 812-0295",
          "type": "phone"
        },
        "b": {
          "field": "cjacobson@rgl.com",
          "type": "email"
        },
        "c": {
          "field": "(636) 537-9279",
          "type": "fax"
        },
        "d": {
          "field": "https://www.rgl.com/",
          "type": "web"
        }
      },
      "zip": "63017",
      "city": "Chesterfield",
      "street": "1422 Elbridge Payne Rd.",
      "street2": "Suite 240"
    },
    "jamesc": {
      "pic": "",
      "originaliconwidth": 1,
      "originaliconheight": 1,
      "state": "x",
      "name": "x",
      "corp": "x",
      "launchobjects": {
        "a": {
          "field": "x",
          "type": "phone"
        },
        "b": {
          "field": "x.com",
          "type": "email"
        },
        "d": {
          "field": "http://www.x.com/",
          "type": "web"
        }
      },
      "zip": "x",
      "city": "x",
      "street": "x",
      "geo": {
        "latitude": 1,
        "longitude": -1
      }
    },
    "kellerw": {
      "pic": "",
      "originaliconwidth": 1,
      "originaliconheight": 1,
      "state": "",
      "name": "Warren Keller",
      "corp": "Taylor, Keller & Oswald, PLLC",
      "launchobjects": {
        "a": {
          "field": "(606) 878-8844",
          "type": "phone"
        },
        "b": {
          "field": "wkeller@tkolegal.com",
          "type": "email"
        },
        "d": {
          "field": "http://www.tkolegal.com",
          "type": "web"
        }
      },
      "zip": "",
      "city": "",
      "street": ""
    },
    "koontzt": {
      "pic": "",
      "originaliconwidth": 1,
      "originaliconheight": 1,
      "state": "x",
      "name": "x",
      "corp": "x",
      "launchobjects": {
        "a": {
          "field": "x",
          "type": "phone"
        },
        "b": {
          "field": "x.com",
          "type": "email"
        },
        "d": {
          "field": "http://www.x.com/",
          "type": "web"
        }
      },
      "zip": "x",
      "city": "x",
      "street": "x",
      "geo": {
        "latitude": 1,
        "longitude": -1
      }
    },
    "lanxonm": {
      "pic": "",
      "originaliconwidth": 1,
      "originaliconheight": 1,
      "state": "IL",
      "name": "Michael A. Lanxon",
      "corp": "Midwest Fire Consulting Group, LLC",
      "launchobjects": {
        "a": {
          "field": "(618) 687-4900",
          "type": "phone"
        },
        "b": {
          "field": "mlanxon@midwest-fire.com",
          "type": "email"
        },
        "c": {
          "field": "(618) 808-0190",
          "type": "fax"
        },
        "d": {
          "field": "http://midwest-fire.com/",
          "type": "web"
        }
      },
      "zip": "62254",
      "city": "Lebanon",
      "street": "401 Torchlight Lane"
    },
    "legenzam": {
      "pic": "",
      "originaliconwidth": 1,
      "originaliconheight": 1,
      "state": "IL",
      "name": "Michael Legenza",
      "corp": "Safeway Insurance",
      "launchobjects": {
        "a": {
          "field": "(630) 850-3874",
          "type": "phone"
        }
      },
      "zip": "60559",
      "city": "Westmont",
      "street": "790 Pasquinelli Dr."
    },
    "libbertj": {
      "pic": "libbertj.jpg",
      "originaliconwidth": 2272,
      "originaliconheight": 1704,
      "launchobjects": {
        "a": {
          "field": "(513) 919-7200",
          "type": "phone"
        },
        "b": {
          "field": "jonlibbert@msn.com",
          "type": "email"
        }
      },
      "name": "Jonathan Libbert",
      "corp": "JD Forensics, Inc.",
      "zip": "41017",
      "state": "KY",
      "city": "Crescent Springs",
      "street": "2613 Crescent Springs Pike"
    },
    "luskinr": {
      "pic": "luskinr.jpg",
      "originaliconwidth": 2000,
      "originaliconheight": 3008,
      "launchobjects": {
        "a": {
          "field": "(404) 264-1500",
          "type": "phone"
        },
        "b": {
          "field": "rluskin@gmlj.com",
          "type": "email"
        },
        "c": {
          "field": "(404) 264-1737",
          "type": "fax"
        },
        "d": {
          "field": "http://www.gmlj.com/",
          "type": "web"
        }
      },
      "name": "Robert A. Luskin",
      "corp": "Goodman McGuffey LLP",
      "zip": "30326",
      "state": "GA",
      "city": "Atlanta",
      "street": "3340 Peachtree Rd., N.E.",
      "street2": "Suite 2100"
    },
    "mcdonaldc": {
      "pic": "",
      "originaliconwidth": 1,
      "originaliconheight": 1,
      "state": "IL",
      "name": "Chris S. McDonald",
      "corp": "Firensics",
      "launchobjects": {
        "a": {
          "field": "(618) 741-5359",
          "type": "phone"
        },
        "c": {
          "field": "(866) 843-9475",
          "type": "fax"
        }
      },
      "zip": "62285",
      "city": "Smithton",
      "street": "5672 Sand Rock Rd."
    },
    "meshelh": {
      "pic": "meshelh.jpg",
      "originaliconwidth": 576,
      "originaliconheight": 768,
      "state": "FL",
      "name": "Harvey S. Meshel",
      "corp": "HSM Consulting, Inc.",
      "launchobjects": {
        "a": {
          "field": "(954) 961-3502",
          "type": "phone"
        },
        "d": {
          "field": "http://www.hsmconsulting.net/",
          "type": "web"
        }
      },
      "zip": "33081",
      "city": "Hollywood",
      "street": "P.O. Box 814722"
    },
    "meyerk": {
      "pic": "meyerk.jpg",
      "originaliconwidth": 170,
      "originaliconheight": 224,
      "state": "MI",
      "name": "Kurt D. Meyer",
      "corp": "Gregory & Meyer, P.C.",
      "launchobjects": {
        "a": {
          "field": "(248) 689-3920",
          "type": "phone"
        },
        "b": {
          "field": "kmeyer@gregorylaw.com",
          "type": "email"
        },
        "c": {
          "field": "(248) 689-4560",
          "type": "fax"
        },
        "d": {
          "field": "http://gregorylaw.com/",
          "type": "web"
        }
      },
      "zip": "48083",
      "city": "Troy",
      "street": "340 East Big Beaver Rd.",
      "street2": "Suite 520"
    },
    "millerr": {
      "pic": "",
      "originaliconwidth": 1,
      "originaliconheight": 1,
      "state": "IL",
      "name": "Ryan Miller",
      "corp": "Farmers Insurance",
      "launchobjects": {
        "a": {
          "field": "(630) 803-8517",
          "type": "phone"
        },
        "d": {
          "field": "https://www.farmers.com/",
          "type": "web"
        }
      },
      "zip": "60506",
      "city": "Aurora",
      "street": "2245 Sequoia Dr.",
      "street2": "Floor 2"
    },
    "moche": {
      "pic": "moche.jpg",
      "originaliconwidth": 1598,
      "originaliconheight": 1954,
      "state": "IL",
      "name": "Eric Moch",
      "corp": "HeplerBroom, LLC",
      "launchobjects": {
        "a": {
          "field": "(312) 205-7712",
          "type": "phone"
        },
        "b": {
          "field": "emoch@heplerbroom.com",
          "type": "email"
        },
        "c": {
          "field": "(312) 230-9201",
          "type": "fax"
        },
        "d": {
          "field": "https://www.heplerbroom.com/",
          "type": "web"
        }
      },
      "zip": "60602",
      "city": "Chicago",
      "street": "30 N. LaSalle St.",
      "street2": "Suite 2900"
    },
    "morrowj": {
      "pic": "morrowj.jpg",
      "originaliconwidth": 288,
      "originaliconheight": 432,
      "state": "MO",
      "name": "Jonathan Morrow",
      "corp": "Brown & James, P.C.",
      "launchobjects": {
        "a": {
          "field": "(314) 242-5378",
          "type": "phone"
        },
        "b": {
          "field": "jmorrow@bjpc.com",
          "type": "email"
        },
        "c": {
          "field": "(314) 242-5578",
          "type": "fax"
        },
        "d": {
          "field": "https://www.brownjames.com/",
          "type": "web"
        }
      },
      "zip": "63101",
      "city": "St. Louis",
      "street": "800 Market St.",
      "street2": "Suite 1100"
    },
    "munnj": {
      "pic": "munnj.jpg",
      "originaliconwidth": 336,
      "originaliconheight": 419,
      "state": "AL",
      "name": "Jonnie M. Munn",
      "corp": "CSSI Investigations",
      "launchobjects": {
        "a": {
          "field": "(800) 239-2774",
          "type": "phone"
        },
        "c": {
          "field": "(205) 987-9383",
          "type": "fax"
        },
        "d": {
          "field": "http://www.cssi.net/",
          "type": "web"
        }
      },
      "zip": "35244",
      "city": "Birmingham",
      "street": "500 Chase Park South",
      "street2": "Suite 110"
    },
    "noceroa": {
      "pic": "noceroa.jpg",
      "originaliconwidth": 174,
      "originaliconheight": 254,
      "state": "FL",
      "name": "Aimee Nocero",
      "corp": "Neilson and Associates, P.A.",
      "launchobjects": {
        "a": {
          "field": "(407) 843-6514",
          "type": "phone"
        },
        "b": {
          "field": "anocero@ntlaw.com",
          "type": "email"
        },
        "c": {
          "field": "(407) 843-0427",
          "type": "fax"
        },
        "d": {
          "field": "http://www.ntlaw.com/",
          "type": "web"
        }
      },
      "zip": "32804",
      "city": "Orlando",
      "street": "1332 W. Colonial Dr."
    },
    "oswaldc": {
      "pic": "oswaldc.jpg",
      "originaliconwidth": 2189,
      "originaliconheight": 1599,
      "state": "KY",
      "name": "Clayton O. Oswald",
      "corp": "Taylor, Keller & Oswald, PLLC",
      "launchobjects": {
        "a": {
          "field": "(606) 878-8844",
          "type": "phone"
        },
        "b": {
          "field": "coswald@tkolegal.com",
          "type": "email"
        },
        "c": {
          "field": "(606) 878-8850",
          "type": "fax"
        },
        "d": {
          "field": "http://www.tkolegal.com",
          "type": "web"
        }
      },
      "zip": "40743",
      "city": "London",
      "street": "P.O. Box 3440"
    },
    "ottor": {
      "pic": "",
      "originaliconwidth": 1,
      "originaliconheight": 1,
      "state": "IN",
      "name": "Richard S. Otto",
      "corp": "Allstate Insurance Co.",
      "launchobjects": {
        "a": {
          "field": "(317) 821-3835",
          "type": "phone"
        },
        "b": {
          "field": "rotto@allstate.com",
          "type": "email"
        },
        "d": {
          "field": "http://www.allstate.com",
          "type": "web"
        }
      },
      "zip": "46241",
      "city": "Indianapolis",
      "street": "5757 Decatur Blvd.",
      "street2": "Suite 260"
    },
    "padgettc": {
      "pic": "padgettc.jpg",
      "originaliconwidth": 425,
      "originaliconheight": 661,
      "launchobjects": {
        "a": {
          "field": "(859) 653-0547",
          "type": "phone"
        },
        "b": {
          "field": "candace.padgett@safeauto.com",
          "type": "email"
        },
        "d": {
          "field": "https://www.safeauto.com/",
          "type": "web"
        }
      },
      "name": "Candace Padgett ",
      "corp": "Safe Auto Insurance",
      "zip": "43219",
      "state": "OH",
      "city": "Columbus",
      "street": "4 Easton Oval"
    },
    "pfaffenbergerh": {
      "pic": "pfaffenbergerh.jpg",
      "originaliconwidth": 2016,
      "originaliconheight": 1512,
      "launchobjects": {
        "a": {
          "field": "(502) 437-9011",
          "type": "phone"
        },
        "b": {
          "field": "hans@hanspflaw.com",
          "type": "email"
        },
        "d": {
          "field": "http://www.hanspflaw.com/",
          "type": "web"
        }
      },
      "name": "Hans Pfaffenberger",
      "corp": "Hans Pfaffenberger Law",
      "zip": "40202",
      "state": "KY",
      "city": "Louisville",
      "street": "231 South Fifth St., 3rd Floor"
    },
    "pickoverg": {
      "pic": "pickoverg.jpg",
      "originaliconwidth": 170,
      "originaliconheight": 233,
      "state": "MI",
      "name": "Glen H. Pickover",
      "corp": "Gregory & Meyer, P.C.",
      "launchobjects": {
        "a": {
          "field": "(248) 689-3920",
          "type": "phone"
        },
        "c": {
          "field": "(248) 689-4560",
          "type": "fax"
        },
        "d": {
          "field": "http://gregorylaw.com/",
          "type": "web"
        }
      },
      "zip": "48083",
      "city": "Troy",
      "street": "340 East Big Beaver Rd.",
      "street2": "Suite 520"
    },
    "pinkusg": {
      "pic": "pinkusg.jpg",
      "originaliconwidth": 105,
      "originaliconheight": 139,
      "state": "IN",
      "name": "Gene A. Pinkus",
      "corp": "Kopka Pinkus Dolin, P.C.",
      "launchobjects": {
        "a": {
          "field": "(219) 794-1888",
          "type": "phone"
        },
        "b": {
          "field": "gapinkus@kopkalaw.com",
          "type": "email"
        },
        "d": {
          "field": "http://www.kopkalaw.com/",
          "type": "web"
        }
      },
      "zip": "46307",
      "city": "Crown Point",
      "street": "9801 Connecticut Dr."
    },
    "pressonm": {
      "pic": "",
      "originaliconwidth": 1,
      "originaliconheight": 1,
      "state": "MO",
      "name": "Michael W. Presson",
      "corp": "Liberty Mutual Insurance",
      "launchobjects": {
        "a": {
          "field": "(618) 401-4991",
          "type": "phone"
        },
        "b": {
          "field": "x.com",
          "type": "email"
        },
        "d": {
          "field": "https://www.libertymutual.com/",
          "type": "web"
        }
      },
      "zip": "63026",
      "city": "Fenton",
      "street": "1400 S. Highway Dr."
    },
    "pressonmw": {
      "pic": "",
      "originaliconwidth": 1,
      "originaliconheight": 1,
      "state": "IL",
      "name": "Michael W. Presson",
      "corp": "Pyr-Tech, Inc.",
      "launchobjects": {
        "a": {
          "field": "(618) 344-1621",
          "type": "phone"
        },
        "c": {
          "field": "(618) 344-1852",
          "type": "fax"
        },
        "d": {
          "field": "http://www.pyrtech.com/",
          "type": "web"
        }
      },
      "zip": "62234",
      "city": "Collinsville",
      "street": "843 St. Louis Rd."
    },
    "priceg": {
      "pic": "",
      "originaliconwidth": 1,
      "originaliconheight": 1,
      "state": "KY",
      "name": "Gregory Price",
      "corp": "EFI Global",
      "launchobjects": {
        "a": {
          "field": "(859) 885-1518",
          "type": "phone"
        },
        "d": {
          "field": "http://www.efiglobal.com",
          "type": "web"
        }
      },
      "zip": "40356",
      "city": "Nicholasville",
      "street": "1060 Elizabeth St.",
      "street2": "Suite 7"
    },
    "reynoldsm": {
      "pic": "",
      "originaliconwidth": 1,
      "originaliconheight": 1,
      "state": "",
      "name": "Mike Reynolds",
      "corp": "Unified Investigations & Sciences",
      "launchobjects": {
        "a": {
          "field": "(904) 710-6453",
          "type": "phone"
        },
        "b": {
          "field": "mreynolds@uis-usa.com",
          "type": "email"
        },
        "d": {
          "field": "https://www.uis-usa.com/",
          "type": "web"
        }
      },
      "zip": "",
      "city": "",
      "street": ""
    },
    "rileyr": {
      "pic": "",
      "originaliconwidth": 1,
      "originaliconheight": 1,
      "state": "x",
      "name": "x",
      "corp": "x",
      "launchobjects": {
        "a": {
          "field": "x",
          "type": "phone"
        },
        "b": {
          "field": "x.com",
          "type": "email"
        },
        "d": {
          "field": "http://www.x.com/",
          "type": "web"
        }
      },
      "zip": "x",
      "city": "x",
      "street": "x",
      "geo": {
        "latitude": 1,
        "longitude": -1
      }
    },
    "robinsonm": {
      "pic": "",
      "originaliconwidth": 1,
      "originaliconheight": 1,
      "state": "",
      "name": "Mary Beth Robinson",
      "corp": "NSPII",
      "launchobjects": {
        "a": {
          "field": "(888) 677-4498",
          "type": "phone"
        },
        "b": {
          "field": "nspii@nspii.com",
          "type": "email"
        },
        "d": {
          "field": "http://www.nspii.com",
          "type": "web"
        }
      },
      "zip": "",
      "city": "",
      "street": ""
    },
    "rottmuellerd": {
      "pic": "rottmuellerd.jpg",
      "originaliconwidth": 355,
      "originaliconheight": 369,
      "state": "OH",
      "name": "Dan Rottmueller",
      "corp": "Fire & Explosion Consultants, LLC",
      "launchobjects": {
        "a": {
          "field": "(937) 237-4000",
          "type": "phone"
        },
        "b": {
          "field": "danrottmueller@fec-fire.com",
          "type": "email"
        },
        "d": {
          "field": "http://fec-fire.com/",
          "type": "web"
        }
      },
      "zip": "45424",
      "city": "Dayton",
      "street": "7490 Bridgewater Rd."
    },
    "schockmanb": {
      "pic": "",
      "originaliconwidth": 1,
      "originaliconheight": 1,
      "state": "OH",
      "name": "Brent Schockman",
      "corp": "Fire Science Investigations, LLC",
      "launchobjects": {
        "a": {
          "field": "(937) 478-0434",
          "type": "phone"
        },
        "d": {
          "field": "http://www.fsiohio.com/",
          "type": "web"
        }
      },
      "zip": "45342",
      "city": "Miamisburg",
      "street": "612 Burnside Dr."
    },
    "sherwoodm": {
      "pic": "",
      "originaliconwidth": 1,
      "originaliconheight": 1,
      "state": "x",
      "name": "x",
      "corp": "x",
      "launchobjects": {
        "a": {
          "field": "x",
          "type": "phone"
        },
        "b": {
          "field": "x.com",
          "type": "email"
        },
        "d": {
          "field": "http://www.x.com/",
          "type": "web"
        }
      },
      "zip": "x",
      "city": "x",
      "street": "x",
      "geo": {
        "latitude": 1,
        "longitude": -1
      }
    },
    "smitha": {
      "pic": "smitha.jpg",
      "originaliconwidth": 600,
      "originaliconheight": 801,
      "state": "",
      "name": "Andrew Smith",
      "corp": "Smith, Rolfes & Skavdahl LPA",
      "launchobjects": {
        "a": {
          "field": "(513) 579-0080",
          "type": "phone"
        },
        "b": {
          "field": "asmith@smithrolfes.com",
          "type": "email"
        },
        "d": {
          "field": "http://www.smithrolfes.com",
          "type": "web"
        }
      },
      "zip": "",
      "city": "",
      "street": ""
    },
    "smithg": {
      "pic": "smithg.jpg",
      "originaliconwidth": 150,
      "originaliconheight": 150,
      "state": "FL",
      "name": "Gina G. Smith",
      "corp": "Butler Weihmuller Katz Craig LLP",
      "launchobjects": {
        "a": {
          "field": "(850) 894-4111",
          "type": "phone"
        },
        "c": {
          "field": "(850) 894-4999",
          "type": "fax"
        },
        "d": {
          "field": "http://www.butler.legal/",
          "type": "web"
        }
      },
      "zip": "32312",
      "city": "Tallahassee",
      "street": "3600 Maclay Blvd.",
      "street2": "Suite 101"
    },
    "spearm": {
      "pic": "spearm.jpg",
      "originaliconwidth": 200,
      "originaliconheight": 250,
      "state": "AL",
      "name": "Mark E. Spear",
      "corp": "Spear, Spear & Hamby, P.C.",
      "launchobjects": {
        "a": {
          "field": "(251) 344-8181",
          "type": "phone"
        },
        "b": {
          "field": "mes@sshlawpc.com",
          "type": "email"
        },
        "c": {
          "field": "(251) 344-6629",
          "type": "fax"
        },
        "d": {
          "field": "http://spearspearhamby.com/",
          "type": "web"
        }
      },
      "zip": "36602",
      "city": "Mobile",
      "street": "160 Dauphin St.",
      "street2": "Suite 200"
    },
    "sproatj": {
      "pic": "sproatj.jpg",
      "originaliconwidth": 187,
      "originaliconheight": 189,
      "state": "IL",
      "name": "Jesse J. Sproat",
      "corp": "Unified Investigations & Sciences, Inc.",
      "launchobjects": {
        "a": {
          "field": "(630) 529-2097",
          "type": "phone"
        },
        "b": {
          "field": "jsproat@uis-usa.com",
          "type": "email"
        },
        "c": {
          "field": "(630) 529-2098",
          "type": "fax"
        },
        "d": {
          "field": "https://www.uis-usa.com/",
          "type": "web"
        }
      },
      "zip": "60101",
      "city": "Addison",
      "street": "2055 W. Army Trail Rd.",
      "street2": "Suite 108"
    },
    "sweeber": {
      "pic": "sweeber.jpg",
      "originaliconwidth": 148,
      "originaliconheight": 183,
      "state": "OH",
      "name": "Richard Sweebe",
      "corp": "Ulmer & Berne LLP",
      "launchobjects": {
        "a": {
          "field": "(216) 583-7122",
          "type": "phone"
        },
        "b": {
          "field": "rsweebe@ulmer.com",
          "type": "email"
        },
        "d": {
          "field": "https://www.ulmer.com",
          "type": "web"
        }
      },
      "zip": "44113",
      "city": "Cleveland",
      "street": "1660 W 2nd St",
      "street2": "#1100"
    },
    "tarchalas": {
      "pic": "tarchalas.jpg",
      "originaliconwidth": 106,
      "originaliconheight": 133,
      "state": "MI",
      "name": "Suzanne M. Tarchala",
      "corp": "Matson, Driscoll & Damico",
      "launchobjects": {
        "a": {
          "field": "(248) 283-0222",
          "type": "phone"
        },
        "b": {
          "field": "starchala@mdd.com",
          "type": "email"
        },
        "c": {
          "field": "(734) 939-0173",
          "type": "fax"
        },
        "d": {
          "field": "https://mdd.com/",
          "type": "web"
        }
      },
      "zip": "48084",
      "city": "Troy",
      "street": "1700 West Big Beaver Rd.",
      "street2": "Suite 215"
    },
    "torodet": {
      "pic": "",
      "originaliconwidth": 1,
      "originaliconheight": 1,
      "state": "",
      "name": "Tami Torode ",
      "corp": "State Auto Insurance Co.",
      "launchobjects": {
        "a": {
          "field": "(515) 267-7484",
          "type": "phone"
        },
        "b": {
          "field": "tami.torode@stateauto.com",
          "type": "email"
        },
        "d": {
          "field": "http://www.stateauto.com/",
          "type": "web"
        }
      },
      "zip": "",
      "city": "",
      "street": ""
    },
    "tyrak": {
      "pic": "tyrak.jpg",
      "originaliconwidth": 1632,
      "originaliconheight": 2464,
      "state": "IN",
      "name": "Kevin S. Tyra",
      "corp": "The Tyra Law Firm, P.C.",
      "launchobjects": {
        "a": {
          "field": "(317) 636-1304",
          "type": "phone"
        },
        "b": {
          "field": "kevin.trya@tryalaw.net",
          "type": "email"
        },
        "d": {
          "field": "http://tyralaw.net/",
          "type": "web"
        }
      },
      "zip": "46268",
      "city": "Indianapolis",
      "street": "9100 Purdue Road",
      "street2": "Suite 119"
    },
    "vergonm": {
      "pic": "vergonm.jpg",
      "originaliconwidth": 175,
      "originaliconheight": 175,
      "state": "IN",
      "name": "Michael A. Vergon",
      "corp": "Vergon & Associates Fire Investigation, LLC",
      "launchobjects": {
        "a": {
          "field": "(317) 508-0527",
          "type": "phone"
        },
        "b": {
          "field": "mavergon@vergonfireinvestigation.com",
          "type": "email"
        },
        "d": {
          "field": "http://vergonfireinvestigation.com/",
          "type": "web"
        }
      },
      "zip": "46038",
      "city": "Fishers",
      "street": "11988 Fishers Crossing Dr.",
      "street2": "Suite 152"
    },
    "waggonerw": {
      "pic": "",
      "originaliconwidth": 1,
      "originaliconheight": 1,
      "state": "MO",
      "name": "Walter D. Waggoner",
      "corp": "National Insurance Crime Bureau",
      "launchobjects": {
        "a": {
          "field": "(636) 262-8497",
          "type": "phone"
        },
        "d": {
          "field": "https://www.nicb.org/",
          "type": "web"
        }
      },
      "zip": "63026",
      "city": "Fenton",
      "street": "P.O. Box 574"
    },
    "wallacej": {
      "pic": "",
      "originaliconwidth": 1,
      "originaliconheight": 1,
      "state": "IL",
      "name": "Joi Wallace",
      "corp": "State Farm Insurance Co.",
      "launchobjects": {
        "a": {
          "field": "(630) 541-4061",
          "type": "phone"
        },
        "d": {
          "field": "https://www.statefarm.com",
          "type": "web"
        }
      },
      "zip": "60515",
      "city": "Downers Grove",
      "street": "1400 Opus Place"
    },
    "walworthb": {
      "pic": "walworthb.jpg",
      "originaliconwidth": 149,
      "originaliconheight": 209,
      "state": "MI",
      "name": "Bob Walworth",
      "corp": "Walworth & Nayh, P.C.",
      "launchobjects": {
        "a": {
          "field": "(734) 464-8990",
          "type": "phone"
        },
        "b": {
          "field": "bwalworth@walnay.com",
          "type": "email"
        },
        "c": {
          "field": "(734) 464-1951",
          "type": "fax"
        },
        "d": {
          "field": "http://www.walnay.com/",
          "type": "web"
        }
      },
      "zip": "48152",
      "city": "Livonia",
      "street": "17800 Newburgh Suite 101"
    },
    "warrens": {
      "pic": "",
      "originaliconwidth": 1,
      "originaliconheight": 1,
      "state": "x",
      "name": "x",
      "corp": "x",
      "launchobjects": {
        "a": {
          "field": "x",
          "type": "phone"
        },
        "b": {
          "field": "x.com",
          "type": "email"
        },
        "d": {
          "field": "http://www.x.com/",
          "type": "web"
        }
      },
      "zip": "x",
      "city": "x",
      "street": "x",
      "geo": {
        "latitude": 1,
        "longitude": -1
      }
    },
    "wasekc": {
      "pic": "",
      "originaliconwidth": 1,
      "originaliconheight": 1,
      "state": "MI",
      "name": "Clare A. Wasek",
      "corp": "McMartin, Wasek & Associates, Inc.",
      "launchobjects": {
        "a": {
          "field": "(989) 893-0137",
          "type": "phone"
        },
        "c": {
          "field": "(989) 893-0208",
          "type": "fax"
        }
      },
      "zip": "48707-2058",
      "city": "Bay City",
      "street": "310 Center Avenue",
      "street2": "P.O. Box 2058"
    },
    "wattersm": {
      "pic": "wattersm.jpg",
      "originaliconwidth": 200,
      "originaliconheight": 200,
      "state": "",
      "name": "Miles Watters",
      "corp": "State Farm",
      "launchobjects": {
        "a": {
          "field": "(740) 364-4630",
          "type": "phone"
        },
        "b": {
          "field": "m.watters.axja@statefarm.com",
          "type": "email"
        },
        "d": {
          "field": "https://www.statefarm.com",
          "type": "web"
        }
      },
      "zip": "",
      "city": "",
      "street": ""
    },
    "werkheiserl": {
      "pic": "",
      "originaliconwidth": 1,
      "originaliconheight": 1,
      "state": "AZ",
      "name": "Lin Werkheiser",
      "corp": "iUnlimited, Inc.",
      "launchobjects": {
        "a": {
          "field": "(916) 218-6198, Ext. 591",
          "type": "phone"
        },
        "b": {
          "field": "x.com",
          "type": "email"
        },
        "c": {
          "field": "(877) 262-7439",
          "type": "fax"
        },
        "d": {
          "field": "https://www.iunlimited.net/",
          "type": "web"
        }
      },
      "zip": "85244",
      "city": "Chandler",
      "street": "P.O. Box 1595"
    },
    "yeagerp": {
      "pic": "",
      "originaliconwidth": 1,
      "originaliconheight": 1,
      "state": "MI",
      "name": "Phillip K. Yeager",
      "corp": "Hopkins, Yeager & Smith, P.C.",
      "launchobjects": {
        "a": {
          "field": "(616) 949-6252",
          "type": "phone"
        },
        "c": {
          "field": "(616) 949-0311",
          "type": "fax"
        }
      },
      "zip": "49301-8403",
      "city": "Ada",
      "street": "4690 East Fulton Street",
      "street2": "Suite 102"
    }
  }
}